$GPGGA,040432,3823.1178,N,02350.6598,E,1,04,5.6,1927.2,M,34.5,M,,*7A
$GPRMC,040432,A,3823.1178,N,02350.6598,E,3076.5,324.5,091120,5,E,A*3E
$GPGSV,8,1,32,01,11,244,-19,02,82,142,48,03,10,063,-21,04,81,049,46*7F
$GPGSV,8,2,32,05,17,058,-13,06,28,008,-2,07,89,091,52,08,70,106,38*42
$GPGSV,8,3,32,09,42,274,12,10,74,077,41,11,47,227,18,12,86,299,50*7E
$GPGSV,8,4,32,13,63,115,33,14,60,188,30,15,88,143,51,16,43,127,14*70
$GPGSV,8,5,32,17,73,115,41,18,84,088,48,19,62,349,31,20,33,207,03*7A
$GPGSV,8,6,32,21,62,231,31,22,90,114,52,23,84,063,48,24,45,030,16*7E
$GPGSV,8,7,32,25,44,139,14,26,38,314,09,27,64,080,33,28,51,234,21*79
$GPGSV,8,8,32,29,52,308,22,30,87,102,50,31,01,278,00,32,86,187,50*7F
$GPGGA,040434,3818.0674,N,02342.5525,E,1,04,5.6,1719.3,M,34.5,M,,*7A
$GPRMC,040434,A,3818.0674,N,02342.5525,E,14616.4,231.6,091120,5,E,A*0D
$GPGSV,8,1,32,01,12,244,-19,02,82,142,48,03,10,063,-20,04,81,049,46*7D
$GPGSV,8,2,32,05,18,058,-13,06,28,008,-2,07,89,091,52,08,70,106,38*4D
$GPGSV,8,3,32,09,42,274,12,10,73,077,41,11,47,227,18,12,86,299,50*79
$GPGSV,8,4,32,13,63,115,33,14,60,188,30,15,88,143,51,16,43,127,14*70
$GPGSV,8,5,32,17,72,115,40,18,84,088,48,19,62,349,32,20,33,207,03*79
$GPGSV,8,6,32,21,62,231,32,22,90,114,52,23,84,063,48,24,46,030,16*7E
$GPGSV,8,7,32,25,44,139,15,26,39,314,09,27,64,080,34,28,51,234,21*7E
$GPGSV,8,8,32,29,52,308,23,30,87,102,50,31,01,278,00,32,86,187,50*7E
$GPGGA,040436,3810.2904,N,02336.8873,E,1,04,5.6,1406.7,M,34.5,M,,*73
$GPRMC,040436,A,3810.2904,N,02336.8873,E,16128.1,209.8,091120,5,E,A*05
$GPGSV,8,1,32,01,12,244,-19,02,83,142,48,03,10,063,-20,04,80,049,46*7D
$GPGSV,8,2,32,05,18,058,-12,06,29,008,-1,07,89,091,52,08,69,106,38*46
$GPGSV,8,3,32,09,41,274,12,10,73,077,41,11,47,227,17,12,86,299,50*75
$GPGSV,8,4,32,13,63,115,33,14,60,188,30,15,89,143,51,16,43,127,13*76
$GPGSV,8,5,32,17,72,115,40,18,84,088,48,19,62,349,32,20,33,207,03*79
$GPGSV,8,6,32,21,62,231,32,22,90,114,52,23,84,063,48,24,46,030,16*7E
$GPGSV,8,7,32,25,44,139,15,26,39,314,09,27,64,080,34,28,51,234,22*7D
$GPGSV,8,8,32,29,52,308,23,30,87,102,50,31,01,278,00,32,86,187,50*7E
$GPGGA,040438,3800.8894,N,02334.5322,E,1,04,5.6,1034.9,M,34.5,M,,*75
$GPRMC,040438,A,3800.8894,N,02334.5322,E,17247.7,191.2,091120,5,E,A*0D
$GPGSV,8,1,32,01,12,244,-18,02,83,142,48,03,11,063,-20,04,80,049,46*7D
$GPGSV,8,2,32,05,18,058,-12,06,29,008,-1,07,89,091,52,08,69,106,38*46
$GPGSV,8,3,32,09,41,274,12,10,73,077,41,11,47,227,17,12,86,299,50*75
$GPGSV,8,4,32,13,63,115,32,14,59,188,29,15,89,143,51,16,43,127,13*75
$GPGSV,8,5,32,17,72,115,40,18,84,088,48,19,62,349,32,20,33,207,04*7E
$GPGSV,8,6,32,21,62,231,32,22,90,114,52,23,84,063,48,24,46,030,17*7F
$GPGSV,8,7,32,25,45,139,15,26,39,314,10,27,65,080,34,28,51,234,22*75
$GPGSV,8,8,32,29,53,308,23,30,87,102,50,31,00,278,00,32,86,187,50*7E
$GPGGA,040440,3751.2215,N,02335.8812,E,1,04,5.6,658.0,M,34.5,M,,*48
$GPRMC,040440,A,3751.2215,N,02335.8812,E,17507.2,173.7,091120,5,E,A*0B
$GPGSV,8,1,32,01,13,245,-18,02,83,143,48,03,11,064,-20,04,80,050,46*73
$GPGSV,8,2,32,05,19,059,-12,06,29,009,-1,07,89,092,51,08,69,107,38*46
$GPGSV,8,3,32,09,41,275,11,10,73,078,41,11,46,228,17,12,86,300,50*77
$GPGSV,8,4,32,13,63,116,32,14,59,189,29,15,89,144,51,16,42,128,13*7E
$GPGSV,8,5,32,17,72,116,40,18,83,089,48,19,63,350,32,20,34,208,04*7A
$GPGSV,8,6,32,21,63,232,32,22,90,115,52,23,84,064,49,24,46,031,17*7B
$GPGSV,8,7,32,25,45,140,16,26,39,315,10,27,65,081,34,28,52,235,22*7A
$GPGSV,8,8,32,29,53,309,23,30,87,103,50,31,00,279,00,32,86,188,50*70
$GPGGA,040442,3742.7030,N,02340.7897,E,1,04,5.6,330.9,M,34.5,M,,*4A
$GPRMC,040442,A,3742.7030,N,02340.7897,E,16848.5,155.5,091120,5,E,A*0D
$GPGSV,8,1,32,01,13,245,-18,02,83,143,48,03,11,064,-19,04,80,050,46*79
$GPGSV,8,2,32,05,19,059,-11,06,30,009,-0,07,89,092,51,08,69,107,38*4C
$GPGSV,8,3,32,09,41,275,11,10,73,078,41,11,46,228,17,12,86,300,50*77
$GPGSV,8,4,32,13,62,116,32,14,59,189,29,15,89,144,51,16,42,128,12*7E
$GPGSV,8,5,32,17,72,116,40,18,83,089,48,19,63,350,32,20,34,208,04*7A
$GPGSV,8,6,32,21,63,232,32,22,90,115,52,23,84,064,49,24,47,031,17*7A
$GPGSV,8,7,32,25,45,140,16,26,40,315,10,27,65,081,34,28,52,235,22*74
$GPGSV,8,8,32,29,53,309,24,30,86,103,50,31,00,279,00,32,86,188,50*76
$GPGGA,040444,3736.6014,N,02348.5877,E,1,04,5.6,101.2,M,34.5,M,,*47
$GPRMC,040444,A,3736.6014,N,02348.5877,E,15623.6,134.6,091120,5,E,A*0C
$GPGSV,8,1,32,01,13,245,-17,02,83,143,48,03,12,064,-19,04,80,050,46*75
$GPGSV,8,2,32,05,19,059,-11,06,30,009,-0,07,89,092,51,08,69,107,37*43
$GPGSV,8,3,32,09,40,275,11,10,72,078,40,11,46,228,16,12,86,300,50*77
$GPGSV,8,4,32,13,62,116,32,14,59,189,29,15,89,144,51,16,42,128,12*7E
$GPGSV,8,5,32,17,71,116,40,18,83,089,48,19,63,350,33,20,34,208,04*78
$GPGSV,8,6,32,21,63,232,33,22,90,115,52,23,84,064,49,24,47,031,17*7B
$GPGSV,8,7,32,25,46,140,16,26,40,315,10,27,65,081,35,28,52,235,23*77
$GPGSV,8,8,32,29,53,309,24,30,86,103,50,31,01,279,00,32,86,188,50*77
$GPGGA,040446,3733.8472,N,02358.1712,E,1,04,5.6,2.4,M,34.5,M,,*47
$GPRMC,040446,A,3733.8472,N,02358.1712,E,14540.8,109.9,091120,5,E,A*00
$GPGSV,8,1,32,01,13,245,-17,02,83,143,48,03,12,064,-19,04,80,050,46*75
$GPGSV,8,2,32,05,20,059,-11,06,30,009,00,07,89,092,51,08,68,107,37*55
$GPGSV,8,3,32,09,40,275,10,10,72,078,40,11,46,228,16,12,86,300,50*76
$GPGSV,8,4,32,13,62,116,32,14,58,189,28,15,89,144,51,16,41,128,12*7D
$GPGSV,8,5,32,17,71,116,40,18,83,089,48,19,63,350,33,20,35,208,05*78
$GPGSV,8,6,32,21,63,232,33,22,90,115,52,23,84,064,49,24,47,031,18*74
$GPGSV,8,7,32,25,46,140,16,26,40,315,11,27,65,081,35,28,52,235,23*76
$GPGSV,8,8,32,29,54,309,24,30,86,103,50,31,01,279,00,32,86,188,50*70
$GPGGA,040449,3736.8299,N,02412.8434,E,1,04,5.6,125.4,M,34.5,M,,*4D
$GPRMC,040449,A,3736.8299,N,02412.8434,E,14403.4,75.5,091120,5,E,A*32
$GPGSV,8,1,32,01,14,245,-17,02,83,143,48,03,12,064,-18,04,80,050,46*73
$GPGSV,8,2,32,05,20,059,-10,06,31,009,01,07,89,092,51,08,68,107,37*54
$GPGSV,8,3,32,09,40,275,10,10,72,078,40,11,45,228,16,12,86,300,50*75
$GPGSV,8,4,32,13,61,116,31,14,58,189,28,15,89,144,51,16,41,128,11*7E
$GPGSV,8,5,32,17,71,116,39,18,83,089,48,19,64,350,33,20,35,208,05*71
$GPGSV,8,6,32,21,64,232,33,22,90,115,52,23,85,064,49,24,48,031,18*7D
$GPGSV,8,7,32,25,46,140,17,26,41,315,11,27,66,081,35,28,53,235,23*74
$GPGSV,8,8,32,29,54,309,24,30,86,103,50,31,01,279,00,32,86,188,50*70
$GPGGA,040451,3743.2129,N,02420.7304,E,1,04,5.6,370.7,M,34.5,M,,*4F
$GPRMC,040451,A,3743.2129,N,02420.7304,E,16071.4,44.3,091120,5,E,A*36
$GPGSV,8,1,32,01,14,246,-16,02,84,144,48,03,13,065,-18,04,79,051,46*76
$GPGSV,8,2,32,05,20,060,-10,06,31,010,01,07,89,093,51,08,68,108,37*58
$GPGSV,8,3,32,09,39,276,10,10,72,079,40,11,45,229,15,12,86,301,49*72
$GPGSV,8,4,32,13,61,117,31,14,58,190,28,15,89,145,51,16,41,129,11*77
$GPGSV,8,5,32,17,71,117,39,18,83,090,48,19,64,351,33,20,35,209,06*7B
$GPGSV,8,6,32,21,64,233,33,22,90,116,52,23,85,065,49,24,48,032,18*7D
$GPGSV,8,7,32,25,46,141,17,26,41,316,11,27,66,082,35,28,53,236,23*76
$GPGSV,8,8,32,29,54,310,25,30,86,104,50,31,02,280,00,32,86,189,49*72
$GPGGA,040453,3752.1474,N,02425.6848,E,1,04,5.6,707.6,M,34.5,M,,*41
$GPRMC,040453,A,3752.1474,N,02425.6848,E,17558.3,23.6,091120,5,E,A*31
$GPGSV,8,1,32,01,15,246,-16,02,84,144,48,03,13,065,-18,04,79,051,45*74
$GPGSV,8,2,32,05,21,060,-10,06,31,010,01,07,89,093,51,08,68,108,37*59
$GPGSV,8,3,32,09,39,276,09,10,72,079,40,11,45,229,15,12,85,301,49*79
$GPGSV,8,4,32,13,61,117,31,14,57,190,28,15,89,145,51,16,40,129,11*79
$GPGSV,8,5,32,17,71,117,39,18,83,090,48,19,64,351,34,20,36,209,06*7F
$GPGSV,8,6,32,21,64,233,34,22,90,116,52,23,85,065,49,24,48,032,19*7B
$GPGSV,8,7,32,25,47,141,17,26,41,316,12,27,66,082,35,28,53,236,24*73
$GPGSV,8,8,32,29,55,310,25,30,86,104,50,31,02,280,00,32,85,189,49*70
$GPGGA,040455,3802.3568,N,02426.9388,E,1,04,5.6,1087.2,M,34.5,M,,*72
$GPRMC,040455,A,3802.3568,N,02426.9388,E,18463.0,5.5,091120,5,E,A*0A
$GPGSV,8,1,32,01,15,246,-16,02,84,144,48,03,13,065,-17,04,79,051,45*7B
$GPGSV,8,2,32,05,21,060,-9,06,32,010,02,07,89,093,51,08,67,108,36*6F
$GPGSV,8,3,32,09,39,276,09,10,71,079,40,11,44,229,15,12,85,301,49*7B
$GPGSV,8,4,32,13,61,117,31,14,57,190,27,15,89,145,51,16,40,129,11*76
$GPGSV,8,5,32,17,70,117,39,18,83,090,48,19,64,351,34,20,36,209,06*7E
$GPGSV,8,6,32,21,64,233,34,22,90,116,52,23,85,065,49,24,48,032,19*7B
$GPGSV,8,7,32,25,47,141,18,26,42,316,12,27,66,082,36,28,54,236,24*7B
$GPGSV,8,8,32,29,55,310,25,30,86,104,50,31,02,280,00,32,85,189,49*70
$GPGGA,040457,3812.3599,N,02424.2577,E,1,04,5.6,1454.0,M,34.5,M,,*78
$GPRMC,040457,A,3812.3599,N,02424.2577,E,18401.4,348.1,091120,5,E,A*06
$GPGSV,8,1,32,01,15,246,-15,02,84,144,48,03,14,065,-17,04,79,051,45*7F
$GPGSV,8,2,32,05,21,060,-9,06,32,010,02,07,89,093,51,08,67,108,36*6F
$GPGSV,8,3,32,09,38,276,09,10,71,079,40,11,44,229,15,12,85,301,49*7A
$GPGSV,8,4,32,13,61,117,31,14,57,190,27,15,89,145,51,16,40,129,10*77
$GPGSV,8,5,32,17,70,117,39,18,82,090,48,19,64,351,34,20,36,209,06*7F
$GPGSV,8,6,32,21,64,233,34,22,90,116,52,23,85,065,49,24,49,032,19*7A
$GPGSV,8,7,32,25,47,141,18,26,42,316,12,27,67,082,36,28,54,236,24*7A
$GPGSV,8,8,32,29,55,310,25,30,86,104,50,31,03,280,00,32,85,189,49*71
$GPGGA,040459,3820.6853,N,02417.9815,E,1,04,5.6,1754.7,M,34.5,M,,*7F
$GPRMC,040459,A,3820.6853,N,02417.9815,E,17413.4,329.4,091120,5,E,A*0B
$GPGSV,8,1,32,01,15,246,-15,02,84,144,49,03,14,065,-17,04,79,051,45*7E
$GPGSV,8,2,32,05,22,060,-9,06,32,010,02,07,89,093,51,08,67,108,36*6C
$GPGSV,8,3,32,09,38,276,09,10,71,079,39,11,44,229,14,12,85,301,49*75
$GPGSV,8,4,32,13,60,117,30,14,57,190,27,15,89,145,51,16,40,129,10*77
$GPGSV,8,5,32,17,70,117,39,18,82,090,47,19,65,351,34,20,36,209,07*70
$GPGSV,8,6,32,21,65,233,34,22,90,116,52,23,85,065,49,24,49,032,19*7B
$GPGSV,8,7,32,25,48,141,18,26,42,316,13,27,67,082,36,28,54,236,24*74
$GPGSV,8,8,32,29,55,310,26,30,86,104,50,31,03,280,00,32,85,189,49*72
$GPGGA,040501,3826.0884,N,02408.9830,E,1,04,5.6,1945.5,M,34.5,M,,*7C
$GPRMC,040501,A,3826.0884,N,02408.9830,E,15992.6,307.5,091120,5,E,A*0D
$GPGSV,8,1,32,01,16,247,-15,02,84,145,49,03,14,066,-16,04,79,052,45*7C
$GPGSV,8,2,32,05,22,061,-8,06,32,011,03,07,89,094,51,08,67,109,36*6A
$GPGSV,8,3,32,09,38,277,08,10,71,080,39,11,43,230,14,12,85,302,49*7F
$GPGSV,8,4,32,13,60,118,30,14,57,191,27,15,89,146,52,16,39,130,10*7F
$GPGSV,8,5,32,17,70,118,38,18,82,091,47,19,65,352,34,20,37,210,07*75
$GPGSV,8,6,32,21,65,234,34,22,90,117,52,23,85,066,49,24,49,033,20*75
$GPGSV,8,7,32,25,48,142,18,26,42,317,13,27,67,083,36,28,54,237,25*77
$GPGSV,8,8,32,29,56,311,26,30,86,105,49,31,03,281,00,32,85,190,49*70
$GPGGA,040503,3827.7369,N,02358.5464,E,1,04,5.6,1998.6,M,34.5,M,,*70
$GPRMC,040503,A,3827.7369,N,02358.5464,E,15008.7,281.5,091120,5,E,A*06
$GPGSV,8,1,32,01,16,247,-14,02,84,145,49,03,15,066,-16,04,78,052,45*7D
$GPGSV,8,2,32,05,22,061,-8,06,33,011,03,07,89,094,51,08,67,109,36*6B
$GPGSV,8,3,32,09,38,277,08,10,71,080,39,11,43,230,14,12,85,302,49*7F
$GPGSV,8,4,32,13,60,118,30,14,56,191,27,15,89,146,52,16,39,130,09*76
$GPGSV,8,5,32,17,70,118,38,18,82,091,47,19,65,352,34,20,37,210,07*75
$GPGSV,8,6,32,21,65,234,34,22,90,117,52,23,85,066,49,24,49,033,20*75
$GPGSV,8,7,32,25,48,142,19,26,43,317,13,27,67,083,36,28,55,237,25*76
$GPGSV,8,8,32,29,56,311,26,30,85,105,49,31,04,281,00,32,85,190,49*74
$GPGGA,040505,3825.3389,N,02348.1843,E,1,04,5.6,1906.3,M,34.5,M,,*70
$GPRMC,040505,A,3825.3389,N,02348.1843,E,15233.1,253.6,091120,5,E,A*04
$GPGSV,8,1,32,01,16,247,-14,02,84,145,49,03,15,066,-16,04,78,052,45*7D
$GPGSV,8,2,32,05,23,061,-8,06,33,011,03,07,88,094,51,08,66,109,36*6A
$GPGSV,8,3,32,09,37,277,08,10,70,080,39,11,43,230,13,12,85,302,49*76
$GPGSV,8,4,32,13,60,118,30,14,56,191,26,15,89,146,52,16,39,130,09*77
$GPGSV,8,5,32,17,69,118,38,18,82,091,47,19,65,352,35,20,37,210,08*73
$GPGSV,8,6,32,21,65,234,35,22,90,117,52,23,85,066,49,24,50,033,20*7C
$GPGSV,8,7,32,25,48,142,19,26,43,317,13,27,67,083,36,28,55,237,25*76
$GPGSV,8,8,32,29,56,311,26,30,85,105,49,31,04,281,00,32,85,190,49*74
$GPGGA,040507,3819.1926,N,02339.4185,E,1,04,5.6,1682.0,M,34.5,M,,*70
$GPRMC,040507,A,3819.1926,N,02339.4185,E,16595.9,228.2,091120,5,E,A*0C
$GPGSV,8,1,32,01,17,247,-14,02,84,145,49,03,15,066,-15,04,78,052,45*7F
$GPGSV,8,2,32,05,23,061,-7,06,33,011,03,07,88,094,51,08,66,109,35*66
$GPGSV,8,3,32,09,37,277,07,10,70,080,39,11,43,230,13,12,85,302,49*79
$GPGSV,8,4,32,13,59,118,29,14,56,191,26,15,89,146,52,16,38,130,09*74
$GPGSV,8,5,32,17,69,118,38,18,82,091,47,19,65,352,35,20,38,210,08*7C
$GPGSV,8,6,32,21,65,234,35,22,90,117,52,23,85,066,49,24,50,033,20*7C
$GPGSV,8,7,32,25,49,142,19,26,43,317,14,27,68,083,37,28,55,237,25*7E
$GPGSV,8,8,32,29,56,311,27,30,85,105,49,31,04,281,00,32,85,190,49*75
$GPGGA,040509,3810.1508,N,02333.5563,E,1,04,5.6,1358.4,M,34.5,M,,*76
$GPRMC,040509,A,3810.1508,N,02333.5563,E,18263.6,207.0,091120,5,E,A*0C
$GPGSV,8,1,32,01,17,247,-13,02,85,145,49,03,15,066,-15,04,78,052,45*79
$GPGSV,8,2,32,05,23,061,-7,06,34,011,04,07,88,094,51,08,66,109,35*66
$GPGSV,8,3,32,09,37,277,07,10,70,080,39,11,42,230,13,12,85,302,49*78
$GPGSV,8,4,32,13,59,118,29,14,56,191,26,15,89,146,52,16,38,130,09*74
$GPGSV,8,5,32,17,69,118,38,18,82,091,47,19,66,352,35,20,38,210,08*7F
$GPGSV,8,6,32,21,66,234,35,22,90,117,52,23,86,066,49,24,50,033,21*7D
$GPGSV,8,7,32,25,49,142,19,26,43,317,14,27,68,083,37,28,55,237,26*7D
$GPGSV,8,8,32,29,57,311,27,30,85,105,49,31,05,281,00,32,85,190,49*75
$GPGGA,040511,3759.5025,N,02331.4960,E,1,04,5.6,982.5,M,34.5,M,,*42
$GPRMC,040511,A,3759.5025,N,02331.4960,E,19388.0,188.7,091120,5,E,A*05
$GPGSV,8,1,32,01,17,248,-13,02,85,146,49,03,16,067,-15,04,78,053,44*77
$GPGSV,8,2,32,05,23,062,-7,06,34,012,04,07,88,095,51,08,66,110,35*6F
$GPGSV,8,3,32,09,36,278,07,10,70,081,38,11,42,231,13,12,85,303,49*76
$GPGSV,8,4,32,13,59,119,29,14,55,192,26,15,89,147,52,16,38,131,08*74
$GPGSV,8,5,32,17,69,119,38,18,82,092,47,19,66,353,35,20,38,211,09*7C
$GPGSV,8,6,32,21,66,235,35,22,90,118,52,23,86,067,50,24,50,034,21*7D
$GPGSV,8,7,32,25,49,143,20,26,44,318,14,27,68,084,37,28,56,238,26*75
$GPGSV,8,8,32,29,57,312,27,30,85,106,49,31,05,282,00,32,85,191,49*77
$GPGGA,040513,3748.7893,N,02333.5892,E,1,04,5.6,609.3,M,34.5,M,,*42
$GPRMC,040513,A,3748.7893,N,02333.5892,E,19511.6,171.2,091120,5,E,A*0C
$GPGSV,8,1,32,01,18,248,-13,02,85,146,49,03,16,067,-14,04,78,053,44*79
$GPGSV,8,2,32,05,24,062,-7,06,34,012,04,07,88,095,51,08,65,110,35*6B
$GPGSV,8,3,32,09,36,278,06,10,70,081,38,11,42,231,12,12,84,303,49*77
$GPGSV,8,4,32,13,59,119,29,14,55,192,25,15,89,147,52,16,38,131,08*77
$GPGSV,8,5,32,17,69,119,37,18,81,092,47,19,66,353,35,20,38,211,09*70
$GPGSV,8,6,32,21,66,235,35,22,90,118,52,23,86,067,50,24,51,034,21*7C
$GPGSV,8,7,32,25,49,143,20,26,44,318,15,27,68,084,37,28,56,238,26*74
$GPGSV,8,8,32,29,57,312,27,30,85,106,49,31,05,282,-25,32,84,191,49*5C
$GPGGA,040515,3739.5823,N,02339.5823,E,1,04,5.6,292.9,M,34.5,M,,*47
$GPRMC,040515,A,3739.5823,N,02339.5823,E,18639.5,152.7,091120,5,E,A*0A
$GPGSV,8,1,32,01,18,248,-13,02,85,146,49,03,16,067,-14,04,78,053,44*79
$GPGSV,8,2,32,05,24,062,-6,06,34,012,05,07,88,095,51,08,65,110,35*6B
$GPGSV,8,3,32,09,36,278,06,10,69,081,38,11,42,231,12,12,84,303,49*7F
$GPGSV,8,4,32,13,58,119,29,14,55,192,25,15,89,147,52,16,37,131,08*79
$GPGSV,8,5,32,17,68,119,37,18,81,092,47,19,66,353,36,20,39,211,09*73
$GPGSV,8,6,32,21,66,235,36,22,90,118,52,23,86,067,50,24,51,034,21*7F
$GPGSV,8,7,32,25,50,143,20,26,44,318,15,27,68,084,37,28,56,238,26*7C
$GPGSV,8,8,32,29,57,312,27,30,85,106,49,31,05,282,-25,32,84,191,49*5C
$GPGGA,040517,3733.2517,N,02348.6460,E,1,04,5.6,79.5,M,34.5,M,,*77
$GPRMC,040517,A,3733.2517,N,02348.6460,E,17230.7,131.4,091120,5,E,A*07
$GPGSV,8,1,32,01,18,248,-12,02,85,146,49,03,17,067,-14,04,77,053,44*76
$GPGSV,8,2,32,05,24,062,-6,06,35,012,05,07,88,095,51,08,65,110,34*6B
$GPGSV,8,3,32,09,36,278,06,10,69,081,38,11,41,231,12,12,84,303,49*7C
$GPGSV,8,4,32,13,58,119,28,14,55,192,25,15,89,147,52,16,37,131,07*77
$GPGSV,8,5,32,17,68,119,37,18,81,092,47,19,67,353,36,20,39,211,09*72
$GPGSV,8,6,32,21,67,235,36,22,90,118,52,23,86,067,50,24,51,034,22*7D
$GPGSV,8,7,32,25,50,143,20,26,45,318,15,27,69,084,37,28,56,238,27*7D
$GPGSV,8,8,32,29,57,312,28,30,85,106,49,31,06,282,-25,32,84,191,49*50
$GPGGA,040519,3730.7628,N,02359.4897,E,1,04,5.6,0.2,M,34.5,M,,*4F
$GPRMC,040519,A,3730.7628,N,02359.4897,E,16113.5,106.1,091120,5,E,A*06
$GPGSV,8,1,32,01,19,248,-12,02,85,146,49,03,17,067,-13,04,77,053,44*70
$GPGSV,8,2,32,05,25,062,-6,06,35,012,05,07,88,095,51,08,65,110,34*6A
$GPGSV,8,3,32,09,35,278,06,10,69,081,38,11,41,231,11,12,84,303,49*7C
$GPGSV,8,4,32,13,58,119,28,14,54,192,25,15,89,147,52,16,37,131,07*76
$GPGSV,8,5,32,17,68,119,37,18,81,092,47,19,67,353,36,20,39,211,10*7A
$GPGSV,8,6,32,21,67,235,36,22,90,118,52,23,86,067,50,24,51,034,22*7D
$GPGSV,8,7,32,25,50,143,21,26,45,318,15,27,69,084,38,28,57,238,27*72
$GPGSV,8,8,32,29,58,312,28,30,85,106,49,31,06,282,-24,32,84,191,49*5E
$GPGGA,040521,3732.5294,N,02410.5450,E,1,04,5.6,66.4,M,34.5,M,,*7D
$GPRMC,040521,A,3732.5294,N,02410.5450,E,16098.8,78.6,091120,5,E,A*32
$GPGSV,8,1,32,01,19,249,-12,02,85,147,49,03,17,068,-13,04,77,054,44*78
$GPGSV,8,2,32,05,25,063,-5,06,35,013,06,07,88,096,51,08,65,111,34*68
$GPGSV,8,3,32,09,35,279,05,10,69,082,38,11,41,232,11,12,84,304,49*79
$GPGSV,8,4,32,13,58,120,28,14,54,193,24,15,90,148,52,16,36,132,07*79
$GPGSV,8,5,32,17,68,120,37,18,81,093,47,19,67,354,36,20,40,212,10*7B
$GPGSV,8,6,32,21,67,236,36,22,90,119,52,23,86,068,50,24,52,035,22*72
$GPGSV,8,7,32,25,50,144,21,26,45,319,16,27,69,085,38,28,57,239,27*77
$GPGSV,8,8,32,29,58,313,28,30,85,107,49,31,06,283,-24,32,84,192,49*5C
$GPGGA,040523,3738.3458,N,02420.1928,E,1,04,5.6,268.6,M,34.5,M,,*4E
$GPRMC,040523,A,3738.3458,N,02420.1928,E,17290.8,52.7,091120,5,E,A*3D
$GPGSV,8,1,32,01,19,249,-11,02,85,147,49,03,18,068,-13,04,77,054,44*74
$GPGSV,8,2,32,05,25,063,-5,06,36,013,06,07,88,096,51,08,64,111,34*6A
$GPGSV,8,3,32,09,35,279,05,10,69,082,37,11,40,232,11,12,84,304,48*76
$GPGSV,8,4,32,13,57,120,28,14,54,193,24,15,90,148,52,16,36,132,06*77
$GPGSV,8,5,32,17,68,120,37,18,81,093,46,19,67,354,36,20,40,212,10*7A
$GPGSV,8,6,32,21,67,236,36,22,90,119,52,23,86,068,50,24,52,035,22*72
$GPGSV,8,7,32,25,51,144,21,26,45,319,16,27,69,085,38,28,57,239,27*76
$GPGSV,8,8,32,29,58,313,28,30,84,107,49,31,07,283,-24,32,84,192,48*5D
$GPGGA,040525,3747.4095,N,02427.0004,E,1,04,5.6,577.4,M,34.5,M,,*48
$GPRMC,040525,A,3747.4095,N,02427.0004,E,18977.1,30.7,091120,5,E,A*30
$GPGSV,8,1,32,01,19,249,-11,02,85,147,49,03,18,068,-13,04,77,054,44*74
$GPGSV,8,2,32,05,26,063,-5,06,36,013,06,07,88,096,51,08,64,111,34*69
$GPGSV,8,3,32,09,34,279,05,10,68,082,37,11,40,232,11,12,84,304,48*76
$GPGSV,8,4,32,13,57,120,27,14,54,193,24,15,90,148,52,16,36,132,06*78
$GPGSV,8,5,32,17,67,120,36,18,81,093,46,19,67,354,36,20,40,212,11*75
$GPGSV,8,6,32,21,67,236,36,22,90,119,52,23,86,068,50,24,52,035,23*73
$GPGSV,8,7,32,25,51,144,21,26,46,319,16,27,69,085,38,28,57,239,27*75
$GPGSV,8,8,32,29,58,313,29,30,84,107,49,31,07,283,-23,32,84,192,48*5B
$GPGGA,040527,3758.4312,N,02429.9339,E,1,04,5.6,947.7,M,34.5,M,,*4E
$GPRMC,040527,A,3758.4312,N,02429.9339,E,20272.1,11.8,091120,5,E,A*33
$GPGSV,8,1,32,01,20,249,-11,02,85,147,49,03,18,068,-12,04,77,054,44*7F
$GPGSV,8,2,32,05,26,063,-4,06,36,013,06,07,88,096,51,08,64,111,34*68
$GPGSV,8,3,32,09,34,279,04,10,68,082,37,11,40,232,10,12,84,304,48*76
$GPGSV,8,4,32,13,57,120,27,14,53,193,24,15,90,148,52,16,36,132,06*7F
$GPGSV,8,5,32,17,67,120,36,18,80,093,46,19,68,354,37,20,40,212,11*7A
$GPGSV,8,6,32,21,68,236,37,22,90,119,52,23,86,068,50,24,53,035,23*7C
$GPGSV,8,7,32,25,51,144,22,26,46,319,16,27,70,085,38,28,57,239,28*71
$GPGSV,8,8,32,29,59,313,29,30,84,107,49,31,07,283,-23,32,84,192,48*5A
$GPGGA,040529,3800.0515,N,02400.1497,E,1,04,5.6,1325.6,M,34.5,M,,*79
$GPRMC,040529,A,3800.0515,N,02400.1497,E,42354.3,274.1,091120,5,E,A*01
$GPGSV,8,1,32,01,20,249,-10,02,86,147,49,03,19,068,-12,04,76,054,43*7A
$GPGSV,8,2,32,05,26,063,-4,06,36,013,07,07,88,096,51,08,64,111,33*6E
$GPGSV,8,3,32,09,34,279,04,10,68,082,37,11,40,232,10,12,84,304,48*76
$GPGSV,8,4,32,13,57,120,27,14,53,193,23,15,90,148,52,16,35,132,06*7B
$GPGSV,8,5,32,17,67,120,36,18,80,093,46,19,68,354,37,20,41,212,11*7B
$GPGSV,8,6,32,21,68,236,37,22,90,119,52,23,86,068,50,24,53,035,23*7C
$GPGSV,8,7,32,25,51,144,22,26,46,319,17,27,70,085,38,28,58,239,28*7F
$GPGSV,8,8,32,29,59,313,29,30,84,107,49,31,08,283,-23,32,84,192,48*55
$GPGGA,040531,3800.2242,N,02400.2579,E,1,04,5.6,1656.1,M,34.5,M,,*73
$GPRMC,040531,A,3800.2242,N,02400.2579,E,346.5,26.3,091120,5,E,A*39
$GPGSV,8,1,32,01,20,250,-10,02,86,148,50,03,19,069,-12,04,76,055,43*75
$GPGSV,8,2,32,05,26,064,-4,06,37,014,07,07,88,097,51,08,64,112,33*6D
$GPGSV,8,3,32,09,34,280,04,10,68,083,37,11,39,233,10,12,83,305,48*78
$GPGSV,8,4,32,13,57,121,27,14,53,194,23,15,90,149,52,16,35,133,05*7E
$GPGSV,8,5,32,17,67,121,36,18,80,094,46,19,68,355,37,20,41,213,11*7D
$GPGSV,8,6,32,21,68,237,37,22,90,120,52,23,87,069,50,24,53,036,23*74
$GPGSV,8,7,32,25,52,145,22,26,46,320,17,27,70,086,39,28,58,240,28*7B
$GPGSV,8,8,32,29,59,314,29,30,84,108,49,31,08,284,-22,32,83,193,48*5D
$GPGGA,040533,3800.4678,N,02400.2383,E,1,04,5.6,1891.0,M,34.5,M,,*7D
$GPRMC,040533,A,3800.4678,N,02400.2383,E,439.4,356.4,091120,5,E,A*0E
$GPGSV,8,1,32,01,21,250,-10,02,86,148,50,03,19,069,-11,04,76,055,43*77
$GPGSV,8,2,32,05,27,064,-3,06,37,014,07,07,88,097,51,08,63,112,33*6C
$GPGSV,8,3,32,09,33,280,03,10,68,083,37,11,39,233,09,12,83,305,48*70
$GPGSV,8,4,32,13,56,121,27,14,53,194,23,15,90,149,52,16,35,133,05*7F
$GPGSV,8,5,32,17,67,121,36,18,80,094,46,19,68,355,37,20,41,213,12*7E
$GPGSV,8,6,32,21,68,237,37,22,90,120,52,23,87,069,50,24,53,036,24*73
$GPGSV,8,7,32,25,52,145,22,26,47,320,17,27,70,086,39,28,58,240,28*7A
$GPGSV,8,8,32,29,59,314,29,30,84,108,48,31,08,284,-22,32,83,193,48*5C
$GPGGA,040535,3800.7056,N,02400.0617,E,1,04,5.6,1996.2,M,34.5,M,,*7C
$GPRMC,040535,A,3800.7056,N,02400.0617,E,496.0,329.7,091120,5,E,A*01
$GPGSV,8,1,32,01,21,250,-9,02,86,148,50,03,19,069,-11,04,76,055,43*4F
$GPGSV,8,2,32,05,27,064,-3,06,37,014,08,07,88,097,51,08,63,112,33*63
$GPGSV,8,3,32,09,33,280,03,10,67,083,36,11,39,233,09,12,83,305,48*7E
$GPGSV,8,4,32,13,56,121,26,14,52,194,23,15,90,149,52,16,34,133,05*7E
$GPGSV,8,5,32,17,66,121,36,18,80,094,46,19,68,355,37,20,42,213,12*7C
$GPGSV,8,6,32,21,68,237,37,22,90,120,52,23,87,069,50,24,54,036,24*74
$GPGSV,8,7,32,25,52,145,23,26,47,320,18,27,70,086,39,28,58,240,29*75
$GPGSV,8,8,32,29,60,314,30,30,84,108,48,31,09,284,-22,32,83,193,48*5F
$GPGGA,040537,3800.8527,N,02359.7393,E,1,04,5.6,1956.3,M,34.5,M,,*7A
$GPRMC,040537,A,3800.8527,N,02359.7393,E,528.4,300.1,091120,5,E,A*07
$GPGSV,8,1,32,01,21,250,-9,02,86,148,50,03,20,069,-11,04,76,055,43*45
$GPGSV,8,2,32,05,27,064,-3,06,38,014,08,07,87,097,51,08,63,112,33*63
$GPGSV,8,3,32,09,33,280,03,10,67,083,36,11,38,233,09,12,83,305,48*7F
$GPGSV,8,4,32,13,56,121,26,14,52,194,22,15,90,149,52,16,34,133,04*7E
$GPGSV,8,5,32,17,66,121,35,18,80,094,46,19,69,355,37,20,42,213,12*7E
$GPGSV,8,6,32,21,69,237,37,22,90,120,52,23,87,069,50,24,54,036,24*75
$GPGSV,8,7,32,25,53,145,23,26,47,320,18,27,71,086,39,28,59,240,29*74
$GPGSV,8,8,32,29,60,314,30,30,84,108,48,31,09,284,-22,32,83,193,48*5F
$GPGGA,040539,3800.8354,N,02359.3235,E,1,04,5.6,1777.1,M,34.5,M,,*70
$GPRMC,040539,A,3800.8354,N,02359.3235,E,590.5,267.0,091120,5,E,A*01
$GPGSV,8,1,32,01,22,250,-9,02,86,148,50,03,20,069,-10,04,76,055,43*47
$GPGSV,8,2,32,05,28,064,-2,06,38,014,08,07,87,097,51,08,63,112,32*6C
$GPGSV,8,3,32,09,32,280,03,10,67,083,36,11,38,233,09,12,83,305,48*7E
$GPGSV,8,4,32,13,56,121,26,14,52,194,22,15,90,149,52,16,34,133,04*7E
$GPGSV,8,5,32,17,66,121,35,18,80,094,46,19,69,355,38,20,42,213,13*70
$GPGSV,8,6,32,21,69,237,38,22,90,120,52,23,87,069,50,24,54,036,24*7A
$GPGSV,8,7,32,25,53,145,23,26,48,320,18,27,71,086,39,28,59,240,29*7B
$GPGSV,8,8,32,29,60,314,30,30,84,108,48,31,09,284,-21,32,83,193,48*5C
$GPGGA,040541,3800.6101,N,02358.8994,E,1,04,5.6,1484.8,M,34.5,M,,*7F
$GPRMC,040541,A,3800.6101,N,02358.8994,E,725.4,236.0,091120,5,E,A*01
$GPGSV,8,1,32,01,22,251,-8,02,86,149,50,03,20,070,-10,04,75,056,43*4E
$GPGSV,8,2,32,05,28,065,-2,06,38,015,09,07,87,098,50,08,62,113,32*63
$GPGSV,8,3,32,09,32,281,02,10,67,084,36,11,38,234,08,12,83,306,48*7C
$GPGSV,8,4,32,13,55,122,26,14,51,195,22,15,90,150,52,16,34,134,04*73
$GPGSV,8,5,32,17,66,122,35,18,79,095,46,19,69,356,38,20,42,214,13*70
$GPGSV,8,6,32,21,69,238,38,22,90,121,52,23,87,070,50,24,54,037,25*7C
$GPGSV,8,7,32,25,53,146,23,26,48,321,18,27,71,087,39,28,59,241,29*79
$GPGSV,8,8,32,29,60,315,30,30,83,109,48,31,10,285,-21,32,83,194,48*55
$GPGGA,040543,3800.1757,N,02358.5691,E,1,04,5.6,1121.9,M,34.5,M,,*73
$GPRMC,040543,A,3800.1757,N,02358.5691,E,911.5,210.9,091120,5,E,A*03
$GPGSV,8,1,32,01,22,251,-8,02,86,149,50,03,21,070,-10,04,75,056,43*4F
$GPGSV,8,2,32,05,28,065,-2,06,38,015,09,07,87,098,50,08,62,113,32*63
$GPGSV,8,3,32,09,32,281,02,10,67,084,36,11,38,234,08,12,83,306,48*7C
$GPGSV,8,4,32,13,55,122,25,14,51,195,22,15,90,150,52,16,33,134,03*70
$GPGSV,8,5,32,17,65,122,35,18,79,095,45,19,69,356,38,20,43,214,13*71
$GPGSV,8,6,32,21,69,238,38,22,90,121,52,23,87,070,50,24,55,037,25*7D
$GPGSV,8,7,32,25,53,146,24,26,48,321,19,27,71,087,40,28,59,241,29*71
$GPGSV,8,8,32,29,61,315,31,30,83,109,48,31,10,285,-21,32,83,194,48*55
$GPGGA,040545,3759.5794,N,02358.4304,E,1,04,5.6,741.2,M,34.5,M,,*4F
$GPRMC,040545,A,3759.5794,N,02358.4304,E,1091.2,190.4,091120,5,E,A*34
$GPGSV,8,1,32,01,23,251,-8,02,86,149,50,03,21,070,-9,04,75,056,42*77
$GPGSV,8,2,32,05,29,065,-2,06,39,015,09,07,87,098,50,08,62,113,32*63
$GPGSV,8,3,32,09,32,281,02,10,66,084,36,11,37,234,08,12,83,306,48*72
$GPGSV,8,4,32,13,55,122,25,14,51,195,21,15,90,150,52,16,33,134,03*73
$GPGSV,8,5,32,17,65,122,35,18,79,095,45,19,69,356,38,20,43,214,13*71
$GPGSV,8,6,32,21,69,238,38,22,90,121,52,23,87,070,50,24,55,037,25*7D
$GPGSV,8,7,32,25,54,146,24,26,48,321,19,27,71,087,40,28,60,241,30*74
$GPGSV,8,8,32,29,61,315,31,30,83,109,48,31,10,285,-20,32,83,194,48*54
$GPGGA,040546,3759.2475,N,02358.4571,E,1,04,5.6,561.6,M,34.5,M,,*47
$GPRMC,040546,A,3759.2475,N,02358.4571,E,1197.4,176.4,091120,5,E,A*31
$GPGSV,8,1,32,01,23,251,-8,02,86,149,50,03,21,070,-9,04,75,056,42*77
$GPGSV,8,2,32,05,29,065,-1,06,39,015,09,07,87,098,50,08,62,113,32*60
$GPGSV,8,3,32,09,31,281,01,10,66,084,35,11,37,234,07,12,82,306,48*7F
$GPGSV,8,4,32,13,55,122,25,14,51,195,21,15,90,150,52,16,33,134,03*73
$GPGSV,8,5,32,17,65,122,35,18,79,095,45,19,70,356,38,20,43,214,14*7E
$GPGSV,8,6,32,21,70,238,38,22,90,121,52,23,87,070,50,24,55,037,25*75
$GPGSV,8,7,32,25,54,146,24,26,48,321,19,27,71,087,40,28,60,241,30*74
$GPGSV,8,8,32,29,61,315,31,30,83,109,48,31,10,285,-20,32,82,194,48*55
$GPGGA,040547,3758.9117,N,02358.5558,E,1,04,5.6,398.2,M,34.5,M,,*43
$GPRMC,040547,A,3758.9117,N,02358.5558,E,1240.7,167.0,091120,5,E,A*3F
$GPGSV,8,1,32,01,23,251,-7,02,86,149,50,03,21,070,-9,04,75,056,42*78
$GPGSV,8,2,32,05,29,065,-1,06,39,015,09,07,87,098,50,08,62,113,32*60
$GPGSV,8,3,32,09,31,281,01,10,66,084,35,11,37,234,07,12,82,306,48*7F
$GPGSV,8,4,32,13,55,122,25,14,51,195,21,15,90,150,52,16,33,134,03*73
$GPGSV,8,5,32,17,65,122,34,18,79,095,45,19,70,356,38,20,43,214,14*7F
$GPGSV,8,6,32,21,70,238,38,22,90,121,52,23,87,070,50,24,55,037,25*75
$GPGSV,8,7,32,25,54,146,24,26,49,321,19,27,72,087,40,28,60,241,30*76
$GPGSV,8,8,32,29,61,315,31,30,83,109,48,31,11,285,-20,32,82,194,48*54
$GPGGA,040548,3758.5880,N,02358.7287,E,1,04,5.6,256.9,M,34.5,M,,*48
$GPRMC,040548,A,3758.5880,N,02358.7287,E,1264.3,157.2,091120,5,E,A*3F
$GPGSV,8,1,32,01,23,251,-7,02,86,149,50,03,21,070,-9,04,75,056,42*78
$GPGSV,8,2,32,05,29,065,-1,06,39,015,10,07,87,098,50,08,62,113,31*6B
$GPGSV,8,3,32,09,31,281,01,10,66,084,35,11,37,234,07,12,82,306,48*7F
$GPGSV,8,4,32,13,54,122,25,14,51,195,21,15,90,150,52,16,33,134,03*72
$GPGSV,8,5,32,17,65,122,34,18,79,095,45,19,70,356,38,20,43,214,14*7F
$GPGSV,8,6,32,21,70,238,38,22,90,121,52,23,87,070,50,24,55,037,26*76
$GPGSV,8,7,32,25,54,146,24,26,49,321,19,27,72,087,40,28,60,241,30*76
$GPGSV,8,8,32,29,61,315,31,30,83,109,48,31,11,285,-20,32,82,194,48*54
$GPGGA,040549,3758.2928,N,02358.9742,E,1,04,5.6,142.8,M,34.5,M,,*48
$GPRMC,040549,A,3758.2928,N,02358.9742,E,1270.9,146.7,091120,5,E,A*32
$GPGSV,8,1,32,01,23,251,-7,02,86,149,50,03,22,070,-9,04,75,056,42*7B
$GPGSV,8,2,32,05,29,065,-1,06,39,015,10,07,87,098,50,08,61,113,31*68
$GPGSV,8,3,32,09,31,281,01,10,66,084,35,11,37,234,07,12,82,306,47*70
$GPGSV,8,4,32,13,54,122,25,14,50,195,21,15,90,150,52,16,32,134,03*72
$GPGSV,8,5,32,17,65,122,34,18,79,095,45,19,70,356,38,20,43,214,14*7F
$GPGSV,8,6,32,21,70,238,38,22,90,121,52,23,87,070,50,24,55,037,26*76
$GPGSV,8,7,32,25,54,146,24,26,49,321,19,27,72,087,40,28,60,241,30*76
$GPGSV,8,8,32,29,61,315,31,30,83,109,48,31,11,285,-20,32,82,194,47*5B
$GPGGA,040550,3758.0423,N,02359.2875,E,1,04,5.6,60.3,M,34.5,M,,*7F
$GPRMC,040550,A,3758.0423,N,02359.2875,E,1266.3,135.4,091120,5,E,A*35
$GPGSV,8,1,32,01,23,252,-7,02,87,150,50,03,22,071,-9,04,75,057,42*71
$GPGSV,8,2,32,05,29,066,-1,06,39,016,10,07,87,099,50,08,61,114,31*6E
$GPGSV,8,3,32,09,31,282,01,10,66,085,35,11,37,235,07,12,82,307,47*72
$GPGSV,8,4,32,13,54,123,25,14,50,196,21,15,90,151,52,16,32,135,02*71
$GPGSV,8,5,32,17,65,123,34,18,79,096,45,19,70,357,39,20,44,215,14*7B
$GPGSV,8,6,32,21,70,239,39,22,90,122,52,23,87,071,51,24,55,038,26*7A
$GPGSV,8,7,32,25,54,147,25,26,49,322,20,27,72,088,40,28,60,242,30*73
$GPGSV,8,8,32,29,61,316,31,30,83,110,48,31,11,286,-20,32,82,195,47*52
$GPGGA,040551,3757.8518,N,02359.6598,E,1,04,5.6,12.3,M,34.5,M,,*7F
$GPRMC,040551,A,3757.8518,N,02359.6598,E,1259.7,123.0,091120,5,E,A*3B
$GPGSV,8,1,32,01,23,252,-7,02,87,150,50,03,22,071,-8,04,75,057,42*70
$GPGSV,8,2,32,05,29,066,-1,06,40,016,10,07,87,099,50,08,61,114,31*60
$GPGSV,8,3,32,09,31,282,01,10,66,085,35,11,36,235,07,12,82,307,47*73
$GPGSV,8,4,32,13,54,123,24,14,50,196,21,15,90,151,52,16,32,135,02*70
$GPGSV,8,5,32,17,65,123,34,18,79,096,45,19,70,357,39,20,44,215,14*7B
$GPGSV,8,6,32,21,70,239,39,22,90,122,52,23,87,071,51,24,56,038,26*79
$GPGSV,8,7,32,25,54,147,25,26,49,322,20,27,72,088,40,28,60,242,30*73
$GPGSV,8,8,32,29,61,316,31,30,83,110,48,31,11,286,-19,32,82,195,47*58
$GPGGA,040552,3757.7347,N,02400.0791,E,1,04,5.6,0.6,M,34.5,M,,*4F
$GPRMC,040552,A,3757.7347,N,02400.0791,E,1262.6,109.5,091120,5,E,A*39
$GPGSV,8,1,32,01,24,252,-7,02,87,150,50,03,22,071,-8,04,74,057,42*76
$GPGSV,8,2,32,05,30,066,-0,06,40,016,10,07,87,099,50,08,61,114,31*69
$GPGSV,8,3,32,09,30,282,01,10,66,085,35,11,36,235,07,12,82,307,47*72
$GPGSV,8,4,32,13,54,123,24,14,50,196,21,15,90,151,52,16,32,135,02*70
$GPGSV,8,5,32,17,65,123,34,18,79,096,45,19,70,357,39,20,44,215,14*7B
$GPGSV,8,6,32,21,70,239,39,22,90,122,52,23,87,071,51,24,56,038,26*79
$GPGSV,8,7,32,25,54,147,25,26,49,322,20,27,72,088,40,28,60,242,30*73
$GPGSV,8,8,32,29,62,316,31,30,83,110,48,31,11,286,-19,32,82,195,47*5B
$GPGGA,040553,3757.7021,N,02400.5305,E,1,04,5.6,25.6,M,34.5,M,,*76
$GPRMC,040553,A,3757.7021,N,02400.5305,E,1286.6,95.2,091120,5,E,A*0E
$GPGSV,8,1,32,01,24,252,-7,02,87,150,50,03,22,071,-8,04,74,057,42*76
$GPGSV,8,2,32,05,30,066,-0,06,40,016,10,07,87,099,50,08,61,114,31*69
$GPGSV,8,3,32,09,30,282,00,10,65,085,35,11,36,235,06,12,82,307,47*71
$GPGSV,8,4,32,13,54,123,24,14,50,196,20,15,90,151,52,16,32,135,02*71
$GPGSV,8,5,32,17,64,123,34,18,78,096,45,19,70,357,39,20,44,215,15*7A
$GPGSV,8,6,32,21,70,239,39,22,90,122,52,23,87,071,51,24,56,038,26*79
$GPGSV,8,7,32,25,55,147,25,26,49,322,20,27,72,088,40,28,61,242,31*72
$GPGSV,8,8,32,29,62,316,32,30,83,110,48,31,11,286,-19,32,82,195,47*58
$GPGGA,040554,3757.7618,N,02400.9965,E,1,04,5.6,86.5,M,34.5,M,,*77
$GPRMC,040554,A,3757.7618,N,02400.9965,E,1340.0,80.8,091120,5,E,A*06
$GPGSV,8,1,32,01,24,252,-6,02,87,150,50,03,22,071,-8,04,74,057,42*77
$GPGSV,8,2,32,05,30,066,-0,06,40,016,10,07,87,099,50,08,61,114,31*69
$GPGSV,8,3,32,09,30,282,00,10,65,085,35,11,36,235,06,12,82,307,47*71
$GPGSV,8,4,32,13,54,123,24,14,50,196,20,15,90,151,52,16,32,135,02*71
$GPGSV,8,5,32,17,64,123,34,18,78,096,45,19,70,357,39,20,44,215,15*7A
$GPGSV,8,6,32,21,70,239,39,22,90,122,52,23,87,071,51,24,56,038,26*79
$GPGSV,8,7,32,25,55,147,25,26,50,322,20,27,72,088,40,28,61,242,31*7A
$GPGSV,8,8,32,29,62,316,32,30,83,110,48,31,12,286,-19,32,82,195,47*5B
$GPGGA,040555,3757.9180,N,02401.4578,E,1,04,5.6,180.8,M,34.5,M,,*48
$GPRMC,040555,A,3757.9180,N,02401.4578,E,1425.0,66.8,091120,5,E,A*0F
$GPGSV,8,1,32,01,24,252,-6,02,87,150,50,03,23,071,-8,04,74,057,42*76
$GPGSV,8,2,32,05,30,066,00,06,40,016,11,07,87,099,50,08,61,114,31*75
$GPGSV,8,3,32,09,30,282,00,10,65,085,35,11,36,235,06,12,82,307,47*71
$GPGSV,8,4,32,13,54,123,24,14,50,196,20,15,90,151,52,16,32,135,02*71
$GPGSV,8,5,32,17,64,123,34,18,78,096,45,19,70,357,39,20,44,215,15*7A
$GPGSV,8,6,32,21,70,239,39,22,90,122,52,23,88,071,51,24,56,038,26*76
$GPGSV,8,7,32,25,55,147,25,26,50,322,20,27,72,088,40,28,61,242,31*7A
$GPGSV,8,8,32,29,62,316,32,30,83,110,48,31,12,286,-19,32,82,195,47*5B
$GPGGA,040556,3758.1707,N,02401.8943,E,1,04,5.6,305.3,M,34.5,M,,*49
$GPRMC,040556,A,3758.1707,N,02401.8943,E,1536.9,53.7,091120,5,E,A*09
$GPGSV,8,1,32,01,24,252,-6,02,87,150,50,03,23,071,-8,04,74,057,42*76
$GPGSV,8,2,32,05,30,066,00,06,40,016,11,07,87,099,50,08,61,114,31*75
$GPGSV,8,3,32,09,30,282,-0,10,65,085,35,11,36,235,06,12,82,307,47*6C
$GPGSV,8,4,32,13,53,123,24,14,50,196,20,15,90,151,52,16,31,135,01*76
$GPGSV,8,5,32,17,64,123,34,18,78,096,45,19,71,357,39,20,44,215,15*7B
$GPGSV,8,6,32,21,71,239,39,22,90,122,52,23,88,071,51,24,56,038,26*77
$GPGSV,8,7,32,25,55,147,25,26,50,322,20,27,72,088,40,28,61,242,31*7A
$GPGSV,8,8,32,29,62,316,32,30,82,110,48,31,12,286,-19,32,82,195,47*5A
$GPGGA,040557,3758.5159,N,02402.2854,E,1,04,5.6,455.4,M,34.5,M,,*4A
$GPRMC,040557,A,3758.5159,N,02402.2854,E,1666.0,41.8,091120,5,E,A*0C
$GPGSV,8,1,32,01,24,252,-6,02,87,150,50,03,23,071,-7,04,74,057,42*79
$GPGSV,8,2,32,05,30,066,00,06,40,016,11,07,87,099,50,08,61,114,31*75
$GPGSV,8,3,32,09,30,282,-0,10,65,085,34,11,36,235,06,12,82,307,47*6D
$GPGSV,8,4,32,13,53,123,24,14,49,196,20,15,90,151,52,16,31,135,01*7E
$GPGSV,8,5,32,17,64,123,34,18,78,096,45,19,71,357,39,20,45,215,15*7A
$GPGSV,8,6,32,21,71,239,39,22,90,122,52,23,88,071,51,24,56,038,27*76
$GPGSV,8,7,32,25,55,147,25,26,50,322,20,27,73,088,41,28,61,242,31*7A
$GPGSV,8,8,32,29,62,316,32,30,82,110,48,31,12,286,-18,32,82,195,47*5B
$GPGGA,040558,3758.9449,N,02402.6116,E,1,04,5.6,625.4,M,34.5,M,,*43
$GPRMC,040558,A,3758.9449,N,02402.6116,E,1800.5,30.9,091120,5,E,A*0C
$GPGSV,8,1,32,01,25,252,-6,02,87,150,50,03,23,071,-7,04,74,057,42*78
$GPGSV,8,2,32,05,30,066,01,06,41,016,11,07,87,099,50,08,60,114,30*75
$GPGSV,8,3,32,09,30,282,-0,10,65,085,34,11,35,235,06,12,82,307,47*6E
$GPGSV,8,4,32,13,53,123,24,14,49,196,20,15,90,151,52,16,31,135,01*7E
$GPGSV,8,5,32,17,64,123,33,18,78,096,45,19,71,357,39,20,45,215,15*7D
$GPGSV,8,6,32,21,71,239,39,22,90,122,52,23,88,071,51,24,56,038,27*76
$GPGSV,8,7,32,25,55,147,26,26,50,322,21,27,73,088,41,28,61,242,31*78
$GPGSV,8,8,32,29,62,316,32,30,82,110,48,31,12,286,-18,32,82,195,47*5B
$GPGGA,040559,3759.4451,N,02402.8549,E,1,04,5.6,809.2,M,34.5,M,,*41
$GPRMC,040559,A,3759.4451,N,02402.8549,E,1928.6,21.0,091120,5,E,A*09
$GPGSV,8,1,32,01,25,252,-6,02,87,150,50,03,23,071,-7,04,74,057,42*78
$GPGSV,8,2,32,05,31,066,01,06,41,016,11,07,87,099,50,08,60,114,30*74
$GPGSV,8,3,32,09,29,282,-1,10,65,085,34,11,35,235,06,12,82,307,47*67
$GPGSV,8,4,32,13,53,123,23,14,49,196,20,15,90,151,52,16,31,135,01*79
$GPGSV,8,5,32,17,64,123,33,18,78,096,45,19,71,357,39,20,45,215,15*7D
$GPGSV,8,6,32,21,71,239,39,22,90,122,52,23,88,071,51,24,57,038,27*77
$GPGSV,8,7,32,25,55,147,26,26,50,322,21,27,73,088,41,28,61,242,31*78
$GPGSV,8,8,32,29,62,316,32,30,82,110,47,31,12,286,-18,32,82,195,47*54
$GPGGA,040600,3800.0000,N,02403.0000,E,1,04,5.6,1000.0,M,34.5,M,,*7A
$GPRMC,040600,A,3800.0000,N,02403.0000,E,2039.7,11.6,091120,5,E,A*0E
$GPGSV,8,1,32,01,25,253,-5,02,87,151,50,03,23,072,-7,04,74,058,41*74
$GPGSV,8,2,32,05,31,067,01,06,41,017,11,07,87,100,50,08,60,115,30*74
$GPGSV,8,3,32,09,29,283,-1,10,65,086,34,11,35,236,05,12,82,308,47*6A
$GPGSV,8,4,32,13,53,124,23,14,49,197,20,15,90,152,52,16,31,136,01*7F
$GPGSV,8,5,32,17,64,124,33,18,78,097,45,19,71,358,39,20,45,216,16*74
$GPGSV,8,6,32,21,71,240,39,22,90,123,52,23,88,072,51,24,57,039,27*7A
$GPGSV,8,7,32,25,55,148,26,26,50,323,21,27,73,089,41,28,61,243,31*76
$GPGSV,8,8,32,29,63,317,32,30,82,111,47,31,13,287,-18,32,82,196,47*56
$GPGGA,040601,3800.5899,N,02403.0349,E,1,04,5.6,1190.8,M,34.5,M,,*78
$GPRMC,040601,A,3800.5899,N,02403.0349,E,2126.0,2.7,091120,5,E,A*37
$GPGSV,8,1,32,01,25,253,-5,02,87,151,50,03,23,072,-7,04,74,058,41*74
$GPGSV,8,2,32,05,31,067,01,06,41,017,11,07,86,100,50,08,60,115,30*75
$GPGSV,8,3,32,09,29,283,-1,10,65,086,34,11,35,236,05,12,82,308,47*6A
$GPGSV,8,4,32,13,53,124,23,14,49,197,19,15,90,152,52,16,31,136,01*75
$GPGSV,8,5,32,17,64,124,33,18,78,097,44,19,71,358,39,20,45,216,16*75
$GPGSV,8,6,32,21,71,240,39,22,90,123,52,23,88,072,51,24,57,039,27*7A
$GPGSV,8,7,32,25,56,148,26,26,50,323,21,27,73,089,41,28,61,243,31*75
$GPGSV,8,8,32,29,63,317,32,30,82,111,47,31,13,287,-18,32,82,196,47*56
$GPGGA,040602,3801.1925,N,02402.9515,E,1,04,5.6,1374.6,M,34.5,M,,*79
$GPRMC,040602,A,3801.1925,N,02402.9515,E,2182.1,353.8,091120,5,E,A*37
$GPGSV,8,1,32,01,25,253,-5,02,87,151,50,03,24,072,-7,04,74,058,41*73
$GPGSV,8,2,32,05,31,067,01,06,41,017,12,07,86,100,50,08,60,115,30*76
$GPGSV,8,3,32,09,29,283,-1,10,65,086,34,11,35,236,05,12,81,308,47*69
$GPGSV,8,4,32,13,53,124,23,14,49,197,19,15,90,152,52,16,30,136,01*74
$GPGSV,8,5,32,17,63,124,33,18,78,097,44,19,71,358,39,20,45,216,16*72
$GPGSV,8,6,32,21,71,240,39,22,90,123,52,23,88,072,51,24,57,039,27*7A
$GPGSV,8,7,32,25,56,148,26,26,51,323,21,27,73,089,41,28,62,243,31*77
$GPGSV,8,8,32,29,63,317,32,30,82,111,47,31,13,287,-18,32,81,196,47*55
$GPGGA,040603,3801.7837,N,02402.7466,E,1,04,5.6,1544.6,M,34.5,M,,*72
$GPRMC,040603,A,3801.7837,N,02402.7466,E,2206.2,344.7,091120,5,E,A*3C
$GPGSV,8,1,32,01,25,253,-5,02,87,151,50,03,24,072,-7,04,73,058,41*74
$GPGSV,8,2,32,05,31,067,01,06,41,017,12,07,86,100,50,08,60,115,30*76
$GPGSV,8,3,32,09,29,283,-1,10,64,086,34,11,35,236,05,12,81,308,47*68
$GPGSV,8,4,32,13,53,124,23,14,49,197,19,15,90,152,52,16,30,136,00*75
$GPGSV,8,5,32,17,63,124,33,18,78,097,44,19,71,358,40,20,45,216,16*7C
$GPGSV,8,6,32,21,71,240,40,22,90,123,52,23,88,072,51,24,57,039,27*74
$GPGSV,8,7,32,25,56,148,26,26,51,323,21,27,73,089,41,28,62,243,32*74
$GPGSV,8,8,32,29,63,317,33,30,82,111,47,31,13,287,-18,32,81,196,47*54
$GPGGA,040604,3802.3387,N,02402.4218,E,1,04,5.6,1694.7,M,34.5,M,,*71
$GPRMC,040604,A,3802.3387,N,02402.4218,E,2200.1,335.2,091120,5,E,A*36
$GPGSV,8,1,32,01,25,253,-5,02,87,151,50,03,24,072,-6,04,73,058,41*75
$GPGSV,8,2,32,05,31,067,01,06,41,017,12,07,86,100,50,08,60,115,30*76
$GPGSV,8,3,32,09,29,283,-1,10,64,086,34,11,35,236,05,12,81,308,47*68
$GPGSV,8,4,32,13,52,124,23,14,48,197,19,15,90,152,52,16,30,136,00*75
$GPGSV,8,5,32,17,63,124,33,18,78,097,44,19,71,358,40,20,46,216,16*7F
$GPGSV,8,6,32,21,71,240,40,22,90,123,52,23,88,072,51,24,57,039,27*74
$GPGSV,8,7,32,25,56,148,26,26,51,323,21,27,73,089,41,28,62,243,32*74
$GPGSV,8,8,32,29,63,317,33,30,82,111,47,31,13,287,-17,32,81,196,47*5B
$GPGGA,040605,3802.8329,N,02401.9836,E,1,04,5.6,1819.2,M,34.5,M,,*79
$GPRMC,040605,A,3802.8329,N,02401.9836,E,2170.0,325.1,091120,5,E,A*37
$GPGSV,8,1,32,01,26,253,-5,02,87,151,50,03,24,072,-6,04,73,058,41*76
$GPGSV,8,2,32,05,32,067,02,06,42,017,12,07,86,100,50,08,60,115,30*75
$GPGSV,8,3,32,09,29,283,-2,10,64,086,34,11,34,236,05,12,81,308,47*6A
$GPGSV,8,4,32,13,52,124,23,14,48,197,19,15,90,152,52,16,30,136,00*75
$GPGSV,8,5,32,17,63,124,33,18,78,097,44,19,71,358,40,20,46,216,16*7F
$GPGSV,8,6,32,21,71,240,40,22,90,123,52,23,88,072,51,24,57,039,27*74
$GPGSV,8,7,32,25,56,148,26,26,51,323,21,27,73,089,41,28,62,243,32*74
$GPGSV,8,8,32,29,63,317,33,30,82,111,47,31,13,287,-17,32,81,196,47*5B
$GPGGA,040606,3803.2431,N,02401.4439,E,1,04,5.6,1913.5,M,34.5,M,,*7D
$GPRMC,040606,A,3803.2431,N,02401.4439,E,2126.4,314.0,091120,5,E,A*3B
$GPGSV,8,1,32,01,26,253,-4,02,87,151,50,03,24,072,-6,04,73,058,41*77
$GPGSV,8,2,32,05,32,067,02,06,42,017,12,07,86,100,50,08,60,115,30*75
$GPGSV,8,3,32,09,28,283,-2,10,64,086,34,11,34,236,04,12,81,308,47*6A
$GPGSV,8,4,32,13,52,124,23,14,48,197,19,15,90,152,52,16,30,136,-0*68
$GPGSV,8,5,32,17,63,124,33,18,77,097,44,19,71,358,40,20,46,216,16*70
$GPGSV,8,6,32,21,71,240,40,22,90,123,52,23,88,072,51,24,57,039,28*7B
$GPGSV,8,7,32,25,56,148,26,26,51,323,22,27,73,089,41,28,62,243,32*77
$GPGSV,8,8,32,29,63,317,33,30,82,111,47,31,13,287,-17,32,81,196,47*5B
$GPGGA,040607,3803.5483,N,02400.8192,E,1,04,5.6,1974.4,M,34.5,M,,*7B
$GPRMC,040607,A,3803.5483,N,02400.8192,E,2084.1,301.8,091120,5,E,A*3D
$GPGSV,8,1,32,01,26,253,-4,02,87,151,50,03,24,072,-6,04,73,058,41*77
$GPGSV,8,2,32,05,32,067,02,06,42,017,12,07,86,100,50,08,59,115,29*77
$GPGSV,8,3,32,09,28,283,-2,10,64,086,34,11,34,236,04,12,81,308,47*6A
$GPGSV,8,4,32,13,52,124,22,14,48,197,19,15,90,152,52,16,30,136,-0*69
$GPGSV,8,5,32,17,63,124,33,18,77,097,44,19,72,358,40,20,46,216,16*73
$GPGSV,8,6,32,21,72,240,40,22,90,123,52,23,88,072,51,24,57,039,28*78
$GPGSV,8,7,32,25,56,148,27,26,51,323,22,27,73,089,41,28,62,243,32*76
$GPGSV,8,8,32,29,63,317,33,30,82,111,47,31,14,287,-17,32,81,196,47*5C
$GPGGA,040608,3803.7311,N,02400.1303,E,1,04,5.6,1999.4,M,34.5,M,,*7A
$GPRMC,040608,A,3803.7311,N,02400.1303,E,2060.5,288.6,091120,5,E,A*3F
$GPGSV,8,1,32,01,26,253,-4,02,87,151,50,03,25,072,-6,04,73,058,41*76
$GPGSV,8,2,32,05,32,067,02,06,42,017,12,07,86,100,50,08,59,115,29*77
$GPGSV,8,3,32,09,28,283,-2,10,64,086,33,11,34,236,04,12,81,308,47*6D
$GPGSV,8,4,32,13,52,124,22,14,48,197,19,15,90,152,52,16,30,136,-0*69
$GPGSV,8,5,32,17,63,124,32,18,77,097,44,19,72,358,40,20,46,216,17*73
$GPGSV,8,6,32,21,72,240,40,22,90,123,52,23,88,072,51,24,58,039,28*77
$GPGSV,8,7,32,25,56,148,27,26,51,323,22,27,74,089,41,28,62,243,32*71
$GPGSV,8,8,32,29,63,317,33,30,82,111,47,31,14,287,-17,32,81,196,47*5C
$GPGGA,040609,3803.7779,N,02359.4016,E,1,04,5.6,1987.7,M,34.5,M,,*74
$GPRMC,040609,A,3803.7779,N,02359.4016,E,2072.2,274.7,091120,5,E,A*3B
$GPGSV,8,1,32,01,26,253,-4,02,87,151,50,03,25,072,-6,04,73,058,41*76
$GPGSV,8,2,32,05,32,067,02,06,42,017,13,07,86,100,50,08,59,115,29*76
$GPGSV,8,3,32,09,28,283,-2,10,64,086,33,11,34,236,04,12,81,308,47*6D
$GPGSV,8,4,32,13,52,124,22,14,48,197,18,15,90,152,52,16,29,136,-1*61
$GPGSV,8,5,32,17,63,124,32,18,77,097,44,19,72,358,40,20,46,216,17*73
$GPGSV,8,6,32,21,72,240,40,22,90,123,52,23,88,072,51,24,58,039,28*77
$GPGSV,8,7,32,25,57,148,27,26,51,323,22,27,74,089,41,28,62,243,32*70
$GPGSV,8,8,32,29,64,317,33,30,82,111,47,31,14,287,-17,32,81,196,47*5B
$GPGGA,040610,3803.6805,N,02358.6604,E,1,04,5.6,1939.7,M,34.5,M,,*7A
$GPRMC,040610,A,3803.6805,N,02358.6604,E,2130.0,260.5,091120,5,E,A*32
$GPGSV,8,1,32,01,26,254,-4,02,87,152,51,03,25,073,-5,04,73,059,41*70
$GPGSV,8,2,32,05,32,068,02,06,42,018,13,07,86,101,50,08,59,116,29*74
$GPGSV,8,3,32,09,28,284,-2,10,64,087,33,11,34,237,04,12,81,309,47*6B
$GPGSV,8,4,32,13,52,125,22,14,48,198,18,15,90,153,52,16,29,137,-1*6F
$GPGSV,8,5,32,17,63,125,32,18,77,098,44,19,72,359,40,20,46,217,17*7D
$GPGSV,8,6,32,21,72,241,40,22,90,124,52,23,88,073,51,24,58,040,28*7E
$GPGSV,8,7,32,25,57,149,27,26,52,324,22,27,74,090,41,28,63,244,32*7B
$GPGSV,8,8,32,29,64,318,33,30,82,112,47,31,14,288,-16,32,81,197,47*58
$GPGGA,040611,3803.4358,N,02357.9356,E,1,04,5.6,1857.2,M,34.5,M,,*74
$GPRMC,040611,A,3803.4358,N,02357.9356,E,2235.5,246.8,091120,5,E,A*3A
$GPGSV,8,1,32,01,26,254,-4,02,87,152,51,03,25,073,-5,04,73,059,41*70
$GPGSV,8,2,32,05,32,068,03,06,42,018,13,07,86,101,50,08,59,116,29*75
$GPGSV,8,3,32,09,28,284,-2,10,64,087,33,11,34,237,04,12,81,309,47*6B
$GPGSV,8,4,32,13,51,125,22,14,48,198,18,15,90,153,52,16,29,137,-1*6C
$GPGSV,8,5,32,17,62,125,32,18,77,098,44,19,72,359,40,20,46,217,17*7C
$GPGSV,8,6,32,21,72,241,40,22,90,124,52,23,88,073,51,24,58,040,28*7E
$GPGSV,8,7,32,25,57,149,27,26,52,324,22,27,74,090,42,28,63,244,32*78
$GPGSV,8,8,32,29,64,318,33,30,82,112,47,31,14,288,-16,32,81,197,47*58
$GPGGA,040612,3803.0469,N,02357.2566,E,1,04,5.6,1743.1,M,34.5,M,,*71
$GPRMC,040612,A,3803.0469,N,02357.2566,E,2380.1,234.0,091120,5,E,A*30
$GPGSV,8,1,32,01,27,254,-4,02,87,152,51,03,25,073,-5,04,73,059,41*71
$GPGSV,8,2,32,05,33,068,03,06,43,018,13,07,86,101,50,08,59,116,29*75
$GPGSV,8,3,32,09,28,284,-3,10,63,087,33,11,33,237,04,12,81,309,46*6B
$GPGSV,8,4,32,13,51,125,22,14,47,198,18,15,90,153,52,16,29,137,-1*63
$GPGSV,8,5,32,17,62,125,32,18,77,098,44,19,72,359,40,20,47,217,17*7D
$GPGSV,8,6,32,21,72,241,40,22,90,124,52,23,88,073,51,24,58,040,28*7E
$GPGSV,8,7,32,25,57,149,27,26,52,324,22,27,74,090,42,28,63,244,32*78
$GPGSV,8,8,32,29,64,318,33,30,81,112,47,31,14,288,-16,32,81,197,46*5A
$GPGGA,040613,3802.5226,N,02356.6524,E,1,04,5.6,1601.8,M,34.5,M,,*74
$GPRMC,040613,A,3802.5226,N,02356.6524,E,2548.8,222.2,091120,5,E,A*35
$GPGSV,8,1,32,01,27,254,-3,02,87,152,51,03,25,073,-5,04,73,059,41*76
$GPGSV,8,2,32,05,33,068,03,06,43,018,13,07,86,101,50,08,59,116,29*75
$GPGSV,8,3,32,09,27,284,-3,10,63,087,33,11,33,237,03,12,81,309,46*63
$GPGSV,8,4,32,13,51,125,22,14,47,198,18,15,90,153,52,16,29,137,-1*63
$GPGSV,8,5,32,17,62,125,32,18,77,098,44,19,72,359,40,20,47,217,17*7D
$GPGSV,8,6,32,21,72,241,40,22,90,124,52,23,88,073,51,24,58,040,28*7E
$GPGSV,8,7,32,25,57,149,27,26,52,324,22,27,74,090,42,28,63,244,33*79
$GPGSV,8,8,32,29,64,318,34,30,81,112,47,31,15,288,-16,32,81,197,46*5C
$GPGGA,040614,3801.8777,N,02356.1502,E,1,04,5.6,1438.4,M,34.5,M,,*7B
$GPRMC,040614,A,3801.8777,N,02356.1502,E,2723.6,211.5,091120,5,E,A*38
$GPGSV,8,1,32,01,27,254,-3,02,87,152,51,03,25,073,-5,04,72,059,40*76
$GPGSV,8,2,32,05,33,068,03,06,43,018,13,07,86,101,50,08,59,116,29*75
$GPGSV,8,3,32,09,27,284,-3,10,63,087,33,11,33,237,03,12,81,309,46*63
$GPGSV,8,4,32,13,51,125,22,14,47,198,18,15,90,153,52,16,29,137,-1*63
$GPGSV,8,5,32,17,62,125,32,18,77,098,44,19,72,359,40,20,47,217,17*7D
$GPGSV,8,6,32,21,72,241,40,22,90,124,52,23,88,073,51,24,58,040,28*7E
$GPGSV,8,7,32,25,57,149,27,26,52,324,23,27,74,090,42,28,63,244,33*78
$GPGSV,8,8,32,29,64,318,34,30,81,112,47,31,15,288,-16,32,81,197,46*5C
$GPGGA,040615,3801.1323,N,02355.7741,E,1,04,5.6,1258.8,M,34.5,M,,*7A
$GPRMC,040615,A,3801.1323,N,02355.7741,E,2887.5,201.7,091120,5,E,A*34
$GPGSV,8,1,32,01,27,254,-3,02,88,152,51,03,26,073,-5,04,72,059,40*7A
$GPGSV,8,2,32,05,33,068,03,06,43,018,13,07,86,101,50,08,58,116,29*74
$GPGSV,8,3,32,09,27,284,-3,10,63,087,33,11,33,237,03,12,81,309,46*63
$GPGSV,8,4,32,13,51,125,21,14,47,198,18,15,90,153,52,16,29,137,-2*63
$GPGSV,8,5,32,17,62,125,32,18,77,098,44,19,72,359,40,20,47,217,18*72
$GPGSV,8,6,32,21,72,241,40,22,90,124,52,23,88,073,51,24,58,040,29*7F
$GPGSV,8,7,32,25,57,149,27,26,52,324,23,27,74,090,42,28,63,244,33*78
$GPGSV,8,8,32,29,64,318,34,30,81,112,47,31,15,288,-16,32,81,197,46*5C
$GPGGA,040616,3800.3116,N,02355.5442,E,1,04,5.6,1069.8,M,34.5,M,,*7C
$GPRMC,040616,A,3800.3116,N,02355.5442,E,3025.8,192.4,091120,5,E,A*34
$GPGSV,8,1,32,01,27,254,-3,02,88,152,51,03,26,073,-4,04,72,059,40*7B
$GPGSV,8,2,32,05,33,068,03,06,43,018,14,07,86,101,50,08,58,116,28*72
$GPGSV,8,3,32,09,27,284,-3,10,63,087,33,11,33,237,03,12,80,309,46*62
$GPGSV,8,4,32,13,51,125,21,14,47,198,17,15,90,153,52,16,28,137,-2*6D
$GPGSV,8,5,32,17,62,125,32,18,77,098,44,19,72,359,40,20,47,217,18*72
$GPGSV,8,6,32,21,72,241,40,22,90,124,52,23,88,073,51,24,59,040,29*7E
$GPGSV,8,7,32,25,57,149,28,26,52,324,23,27,74,090,42,28,63,244,33*77
$GPGSV,8,8,32,29,64,318,34,30,81,112,47,31,15,288,-16,32,80,197,46*5D
$GPGGA,040617,3759.4445,N,02355.4756,E,1,04,5.6,878.1,M,34.5,M,,*4D
$GPRMC,040617,A,3759.4445,N,02355.4756,E,3127.6,183.6,091120,5,E,A*3A
$GPGSV,8,1,32,01,27,254,-3,02,88,152,51,03,26,073,-4,04,72,059,40*7B
$GPGSV,8,2,32,05,33,068,03,06,43,018,14,07,86,101,50,08,58,116,28*72
$GPGSV,8,3,32,09,27,284,-3,10,63,087,33,11,33,237,03,12,80,309,46*62
$GPGSV,8,4,32,13,51,125,21,14,47,198,17,15,90,153,52,16,28,137,-2*6D
$GPGSV,8,5,32,17,62,125,32,18,77,098,44,19,73,359,41,20,47,217,18*72
$GPGSV,8,6,32,21,73,241,41,22,90,124,52,23,88,073,51,24,59,040,29*7E
$GPGSV,8,7,32,25,57,149,28,26,53,324,23,27,74,090,42,28,63,244,33*76
$GPGSV,8,8,32,29,64,318,34,30,81,112,47,31,15,288,-15,32,80,197,46*5E
$GPGGA,040618,3758.5631,N,02355.5776,E,1,04,5.6,691.0,M,34.5,M,,*48
$GPRMC,040618,A,3758.5631,N,02355.5776,E,3186.2,174.8,091120,5,E,A*3E
$GPGSV,8,1,32,01,28,254,-3,02,88,152,51,03,26,073,-4,04,72,059,40*74
$GPGSV,8,2,32,05,33,068,04,06,43,018,14,07,86,101,50,08,58,116,28*75
$GPGSV,8,3,32,09,27,284,-4,10,63,087,32,11,33,237,03,12,80,309,46*64
$GPGSV,8,4,32,13,51,125,21,14,47,198,17,15,90,153,52,16,28,137,-2*6D
$GPGSV,8,5,32,17,62,125,31,18,76,098,44,19,73,359,41,20,47,217,18*70
$GPGSV,8,6,32,21,73,241,41,22,90,124,52,23,88,073,51,24,59,040,29*7E
$GPGSV,8,7,32,25,58,149,28,26,53,324,23,27,74,090,42,28,63,244,33*79
$GPGSV,8,8,32,29,65,318,34,30,81,112,47,31,15,288,-15,32,80,197,46*5F
$GPGGA,040619,3757.7012,N,02355.8528,E,1,04,5.6,515.2,M,34.5,M,,*4A
$GPRMC,040619,A,3757.7012,N,02355.8528,E,3199.6,165.9,091120,5,E,A*3A
$GPGSV,8,1,32,01,28,254,-2,02,88,152,51,03,26,073,-4,04,72,059,40*75
$GPGSV,8,2,32,05,34,068,04,06,43,018,14,07,86,101,50,08,58,116,28*72
$GPGSV,8,3,32,09,26,284,-4,10,63,087,32,11,32,237,03,12,80,309,46*64
$GPGSV,8,4,32,13,50,125,21,14,46,198,17,15,90,153,52,16,28,137,-2*6D
$GPGSV,8,5,32,17,61,125,31,18,76,098,43,19,73,359,41,20,48,217,18*7B
$GPGSV,8,6,32,21,73,241,41,22,90,124,52,23,88,073,51,24,59,040,29*7E
$GPGSV,8,7,32,25,58,149,28,26,53,324,23,27,75,090,42,28,64,244,33*7F
$GPGSV,8,8,32,29,65,318,34,30,81,112,47,31,15,288,-15,32,80,197,46*5F
$GPGGA,040620,3756.8932,N,02356.2975,E,1,04,5.6,357.2,M,34.5,M,,*48
$GPRMC,040620,A,3756.8932,N,02356.2975,E,3170.8,156.5,091120,5,E,A*3D
$GPGSV,8,1,32,01,28,255,-2,02,88,153,51,03,26,074,-4,04,72,060,40*78
$GPGSV,8,2,32,05,34,069,04,06,44,019,14,07,86,102,50,08,58,117,28*77
$GPGSV,8,3,32,09,26,285,-4,10,63,088,32,11,32,238,02,12,80,310,46*6C
$GPGSV,8,4,32,13,50,126,21,14,46,199,17,15,90,154,52,16,28,138,-2*67
$GPGSV,8,5,32,17,61,126,31,18,76,099,43,19,73,000,41,20,48,218,18*79
$GPGSV,8,6,32,21,73,242,41,22,90,125,52,23,88,074,51,24,59,041,29*7A
$GPGSV,8,7,32,25,58,150,28,26,53,325,23,27,75,091,42,28,64,245,33*76
$GPGSV,8,8,32,29,65,319,34,30,81,113,47,31,16,289,-15,32,80,198,46*52
$GPGGA,040621,3756.1726,N,02356.9006,E,1,04,5.6,222.9,M,34.5,M,,*45
$GPRMC,040621,A,3756.1726,N,02356.9006,E,3108.5,146.6,091120,5,E,A*38
$GPGSV,8,1,32,01,28,255,-2,02,88,153,51,03,26,074,-4,04,72,060,40*78
$GPGSV,8,2,32,05,34,069,04,06,44,019,14,07,86,102,49,08,58,117,28*7F
$GPGSV,8,3,32,09,26,285,-4,10,62,088,32,11,32,238,02,12,80,310,46*6D
$GPGSV,8,4,32,13,50,126,21,14,46,199,17,15,90,154,52,16,28,138,-2*67
$GPGSV,8,5,32,17,61,126,31,18,76,099,43,19,73,000,41,20,48,218,18*79
$GPGSV,8,6,32,21,73,242,41,22,89,125,52,23,88,074,51,24,59,041,29*72
$GPGSV,8,7,32,25,58,150,28,26,53,325,23,27,75,091,42,28,64,245,33*76
$GPGSV,8,8,32,29,65,319,34,30,81,113,47,31,16,289,-15,32,80,198,46*52
$GPGGA,040622,3755.5705,N,02357.6448,E,1,04,5.6,117.1,M,34.5,M,,*4D
$GPRMC,040622,A,3755.5705,N,02357.6448,E,3027.0,135.7,091120,5,E,A*31
$GPGSV,8,1,32,01,28,255,-2,02,88,153,51,03,27,074,-4,04,72,060,40*79
$GPGSV,8,2,32,05,34,069,04,06,44,019,14,07,85,102,49,08,58,117,28*7C
$GPGSV,8,3,32,09,26,285,-4,10,62,088,32,11,32,238,02,12,80,310,46*6D
$GPGSV,8,4,32,13,50,126,21,14,46,199,17,15,90,154,52,16,28,138,-3*66
$GPGSV,8,5,32,17,61,126,31,18,76,099,43,19,73,000,41,20,48,218,19*78
$GPGSV,8,6,32,21,73,242,41,22,89,125,52,23,88,074,51,24,59,041,29*72
$GPGSV,8,7,32,25,58,150,28,26,53,325,24,27,75,091,42,28,64,245,33*71
$GPGSV,8,8,32,29,65,319,34,30,81,113,46,31,16,289,-15,32,80,198,46*53
$GPGGA,040623,3755.1149,N,02358.5065,E,1,04,5.6,43.7,M,34.5,M,,*77
$GPRMC,040623,A,3755.1149,N,02358.5065,E,2945.9,123.8,091120,5,E,A*30
$GPGSV,8,1,32,01,28,255,-2,02,88,153,51,03,27,074,-3,04,72,060,40*7E
$GPGSV,8,2,32,05,34,069,04,06,44,019,15,07,85,102,49,08,57,117,28*72
$GPGSV,8,3,32,09,26,285,-4,10,62,088,32,11,32,238,02,12,80,310,46*6D
$GPGSV,8,4,32,13,50,126,20,14,46,199,16,15,90,154,52,16,27,138,-3*69
$GPGSV,8,5,32,17,61,126,31,18,76,099,43,19,73,000,41,20,48,218,19*78
$GPGSV,8,6,32,21,73,242,41,22,89,125,52,23,88,074,51,24,59,041,29*72
$GPGSV,8,7,32,25,58,150,28,26,53,325,24,27,75,091,42,28,64,245,34*76
$GPGSV,8,8,32,29,65,319,34,30,81,113,46,31,16,289,-14,32,80,198,46*52
$GPGGA,040624,3754.8285,N,02359.4565,E,1,04,5.6,5.5,M,34.5,M,,*4E
$GPRMC,040624,A,3754.8285,N,02359.4565,E,2888.3,110.9,091120,5,E,A*32
$GPGSV,8,1,32,01,28,255,-2,02,88,153,51,03,27,074,-3,04,71,060,40*7D
$GPGSV,8,2,32,05,34,069,04,06,44,019,15,07,85,102,49,08,57,117,28*72
$GPGSV,8,3,32,09,26,285,-4,10,62,088,32,11,32,238,02,12,80,310,46*6D
$GPGSV,8,4,32,13,50,126,20,14,46,199,16,15,90,154,52,16,27,138,-3*69
$GPGSV,8,5,32,17,61,126,31,18,76,099,43,19,73,000,41,20,48,218,19*78
$GPGSV,8,6,32,21,73,242,41,22,89,125,52,23,88,074,51,24,60,041,30*70
$GPGSV,8,7,32,25,58,150,28,26,53,325,24,27,75,091,42,28,64,245,34*76
$GPGSV,8,8,32,29,65,319,35,30,81,113,46,31,16,289,-14,32,80,198,46*53
$GPGGA,040625,3754.7285,N,02400.4612,E,1,04,5.6,3.8,M,34.5,M,,*43
$GPRMC,040625,A,3754.7285,N,02400.4612,E,2876.3,97.2,091120,5,E,A*00
$GPGSV,8,1,32,01,29,255,-2,02,88,153,51,03,27,074,-3,04,71,060,40*7C
$GPGSV,8,2,32,05,34,069,05,06,44,019,15,07,85,102,49,08,57,117,27*7C
$GPGSV,8,3,32,09,26,285,-5,10,62,088,32,11,32,238,02,12,80,310,46*6C
$GPGSV,8,4,32,13,50,126,20,14,46,199,16,15,90,154,52,16,27,138,-3*69
$GPGSV,8,5,32,17,61,126,31,18,76,099,43,19,73,000,41,20,48,218,19*78
$GPGSV,8,6,32,21,73,242,41,22,89,125,52,23,88,074,51,24,60,041,30*70
$GPGSV,8,7,32,25,58,150,29,26,54,325,24,27,75,091,42,28,64,245,34*70
$GPGSV,8,8,32,29,65,319,35,30,81,113,46,31,16,289,-14,32,80,198,46*53
$GPGGA,040626,3754.8252,N,02401.4838,E,1,04,5.6,38.7,M,34.5,M,,*75
$GPRMC,040626,A,3754.8252,N,02401.4838,E,2925.3,83.2,091120,5,E,A*03
$GPGSV,8,1,32,01,29,255,-1,02,88,153,51,03,27,074,-3,04,71,060,40*7F
$GPGSV,8,2,32,05,35,069,05,06,44,019,15,07,85,102,49,08,57,117,27*7D
$GPGSV,8,3,32,09,25,285,-5,10,62,088,32,11,31,238,01,12,80,310,46*6F
$GPGSV,8,4,32,13,50,126,20,14,46,199,16,15,90,154,52,16,27,138,-3*69
$GPGSV,8,5,32,17,61,126,31,18,76,099,43,19,73,000,41,20,48,218,19*78
$GPGSV,8,6,32,21,73,242,41,22,89,125,52,23,89,074,51,24,60,041,30*71
$GPGSV,8,7,32,25,59,150,29,26,54,325,24,27,75,091,43,28,64,245,34*70
$GPGSV,8,8,32,29,65,319,35,30,80,113,46,31,17,289,-14,32,80,198,46*53
$GPGGA,040627,3755.1217,N,02402.4856,E,1,04,5.6,109.0,M,34.5,M,,*42
$GPRMC,040627,A,3755.1217,N,02402.4856,E,3038.7,69.4,091120,5,E,A*02
$GPGSV,8,1,32,01,29,255,-1,02,88,153,51,03,27,074,-3,04,71,060,40*7F
$GPGSV,8,2,32,05,35,069,05,06,45,019,15,07,85,102,49,08,57,117,27*7C
$GPGSV,8,3,32,09,25,285,-5,10,62,088,32,11,31,238,01,12,80,310,46*6F
$GPGSV,8,4,32,13,49,126,20,14,45,199,16,15,90,154,52,16,27,138,-3*62
$GPGSV,8,5,32,17,61,126,31,18,76,099,43,19,73,000,41,20,49,218,19*79
$GPGSV,8,6,32,21,73,242,41,22,89,125,52,23,89,074,51,24,60,041,30*71
$GPGSV,8,7,32,25,59,150,29,26,54,325,24,27,75,091,43,28,64,245,34*70
$GPGSV,8,8,32,29,65,319,35,30,80,113,46,31,17,289,-14,32,80,198,46*53
$GPGGA,040628,3755.6134,N,02403.4272,E,1,04,5.6,212.0,M,34.5,M,,*4C
$GPRMC,040628,A,3755.6134,N,02403.4272,E,3206.7,56.5,091120,5,E,A*07
$GPGSV,8,1,32,01,29,255,-1,02,88,153,51,03,28,074,-3,04,71,060,39*7E
$GPGSV,8,2,32,05,35,069,05,06,45,019,15,07,85,102,49,08,57,117,27*7C
$GPGSV,8,3,32,09,25,285,-5,10,62,088,31,11,31,238,01,12,80,310,46*6C
$GPGSV,8,4,32,13,49,126,20,14,45,199,16,15,90,154,52,16,27,138,-4*65
$GPGSV,8,5,32,17,60,126,30,18,76,099,43,19,74,000,41,20,49,218,19*7E
$GPGSV,8,6,32,21,74,242,41,22,89,125,52,23,89,074,51,24,60,041,30*76
$GPGSV,8,7,32,25,59,150,29,26,54,325,24,27,75,091,43,28,65,245,34*71
$GPGSV,8,8,32,29,66,319,35,30,80,113,46,31,17,289,-14,32,80,198,46*50
$GPGGA,040629,3756.2878,N,02404.2704,E,1,04,5.6,343.9,M,34.5,M,,*42
$GPRMC,040629,A,3756.2878,N,02404.2704,E,3409.8,44.6,091120,5,E,A*03
$GPGSV,8,1,32,01,29,255,-1,02,88,153,51,03,28,074,-2,04,71,060,39*7F
$GPGSV,8,2,32,05,35,069,05,06,45,019,15,07,85,102,49,08,57,117,27*7C
$GPGSV,8,3,32,09,25,285,-5,10,61,088,31,11,31,238,01,12,80,310,46*6F
$GPGSV,8,4,32,13,49,126,20,14,45,199,16,15,90,154,52,16,26,138,-4*64
$GPGSV,8,5,32,17,60,126,30,18,76,099,43,19,74,000,41,20,49,218,19*7E
$GPGSV,8,6,32,21,74,242,41,22,89,125,52,23,89,074,51,24,60,041,30*76
$GPGSV,8,7,32,25,59,150,29,26,54,325,24,27,75,091,43,28,65,245,34*71
$GPGSV,8,8,32,29,66,319,35,30,80,113,46,31,17,289,-13,32,80,198,46*57
$GPGGA,040630,3757.1250,N,02404.9796,E,1,04,5.6,500.0,M,34.5,M,,*40
$GPRMC,040630,A,3757.1250,N,02404.9796,E,3624.6,33.7,091120,5,E,A*0B
$GPGSV,8,1,32,01,29,256,-1,02,88,154,51,03,28,075,-2,04,71,061,39*7B
$GPGSV,8,2,32,05,35,070,05,06,45,020,16,07,85,103,49,08,57,118,27*73
$GPGSV,8,3,32,09,25,286,-5,10,61,089,31,11,31,239,01,12,79,311,46*6B
$GPGSV,8,4,32,13,49,127,20,14,45,200,16,15,90,155,52,16,26,139,-4*66
$GPGSV,8,5,32,17,60,127,30,18,75,100,43,19,74,001,41,20,49,219,20*77
$GPGSV,8,6,32,21,74,243,41,22,89,126,52,23,89,075,51,24,60,042,30*76
$GPGSV,8,7,32,25,59,151,29,26,54,326,25,27,75,092,43,28,65,246,34*72
$GPGSV,8,8,32,29,66,320,35,30,80,114,46,31,17,290,-13,32,79,199,46*55
$GPGGA,040631,3758.0981,N,02405.5234,E,1,04,5.6,674.4,M,34.5,M,,*4C
$GPRMC,040631,A,3758.0981,N,02405.5234,E,3828.2,23.8,091120,5,E,A*0B
$GPGSV,8,1,32,01,29,256,-1,02,88,154,51,03,28,075,-2,04,71,061,39*7B
$GPGSV,8,2,32,05,35,070,06,06,45,020,16,07,85,103,49,08,57,118,27*70
$GPGSV,8,3,32,09,25,286,-6,10,61,089,31,11,31,239,01,12,79,311,46*68
$GPGSV,8,4,32,13,49,127,19,14,45,200,15,15,90,155,52,16,26,139,-4*6F
$GPGSV,8,5,32,17,60,127,30,18,75,100,43,19,74,001,42,20,49,219,20*74
$GPGSV,8,6,32,21,74,243,42,22,89,126,52,23,89,075,51,24,60,042,30*75
$GPGSV,8,7,32,25,59,151,29,26,54,326,25,27,76,092,43,28,65,246,34*71
$GPGSV,8,8,32,29,66,320,35,30,80,114,46,31,17,290,-13,32,79,199,46*55
$GPGGA,040632,3759.1742,N,02405.8756,E,1,04,5.6,860.8,M,34.5,M,,*45
$GPRMC,040632,A,3759.1742,N,02405.8756,E,4000.8,14.5,091120,5,E,A*03
$GPGSV,8,1,32,01,30,256,-0,02,88,154,51,03,28,075,-2,04,71,061,39*72
$GPGSV,8,2,32,05,35,070,06,06,45,020,16,07,85,103,49,08,56,118,27*71
$GPGSV,8,3,32,09,25,286,-6,10,61,089,31,11,30,239,01,12,79,311,45*6A
$GPGSV,8,4,32,13,49,127,19,14,45,200,15,15,90,155,52,16,26,139,-4*6F
$GPGSV,8,5,32,17,60,127,30,18,75,100,43,19,74,001,42,20,49,219,20*74
$GPGSV,8,6,32,21,74,243,42,22,89,126,52,23,89,075,51,24,60,042,30*75
$GPGSV,8,7,32,25,59,151,29,26,54,326,25,27,76,092,43,28,65,246,34*71
$GPGSV,8,8,32,29,66,320,35,30,80,114,46,31,17,290,-13,32,79,199,45*56
$GPGGA,040633,3800.3153,N,02406.0167,E,1,04,5.6,1052.3,M,34.5,M,,*7F
$GPRMC,040633,A,3800.3153,N,02406.0167,E,4127.4,5.6,091120,5,E,A*31
$GPGSV,8,1,32,01,30,256,-0,02,88,154,51,03,28,075,-2,04,71,061,39*72
$GPGSV,8,2,32,05,36,070,06,06,45,020,16,07,85,103,49,08,56,118,27*72
$GPGSV,8,3,32,09,24,286,-6,10,61,089,31,11,30,239,00,12,79,311,45*6A
$GPGSV,8,4,32,13,49,127,19,14,45,200,15,15,90,155,52,16,26,139,-4*6F
$GPGSV,8,5,32,17,60,127,30,18,75,100,43,19,74,001,42,20,49,219,20*74
$GPGSV,8,6,32,21,74,243,42,22,89,126,52,23,89,075,51,24,61,042,31*75
$GPGSV,8,7,32,25,59,151,29,26,55,326,25,27,76,092,43,28,65,246,34*70
$GPGSV,8,8,32,29,66,320,35,30,80,114,46,31,18,290,-13,32,79,199,45*59
$GPGGA,040634,3801.4798,N,02405.9350,E,1,04,5.6,1241.9,M,34.5,M,,*79
$GPRMC,040634,A,3801.4798,N,02405.9350,E,4198.4,356.8,091120,5,E,A*32
$GPGSV,8,1,32,01,30,256,-0,02,88,154,51,03,28,075,-2,04,71,061,39*72
$GPGSV,8,2,32,05,36,070,06,06,46,020,16,07,85,103,49,08,56,118,26*70
$GPGSV,8,3,32,09,24,286,-6,10,61,089,31,11,30,239,00,12,79,311,45*6A
$GPGSV,8,4,32,13,48,127,19,14,44,200,15,15,90,155,52,16,26,139,-4*6F
$GPGSV,8,5,32,17,60,127,30,18,75,100,43,19,74,001,42,20,50,219,20*7C
$GPGSV,8,6,32,21,74,243,42,22,89,126,52,23,89,075,51,24,61,042,31*75
$GPGSV,8,7,32,25,60,151,30,26,55,326,25,27,76,092,43,28,65,246,35*73
$GPGSV,8,8,32,29,66,320,35,30,80,114,46,31,18,290,-13,32,79,199,45*59
$GPGGA,040635,3802.6238,N,02405.6267,E,1,04,5.6,1422.6,M,34.5,M,,*70
$GPRMC,040635,A,3802.6238,N,02405.6267,E,4210.2,348.0,091120,5,E,A*35
$GPGSV,8,1,32,01,30,256,00,02,88,154,51,03,29,075,-2,04,70,061,39*6F
$GPGSV,8,2,32,05,36,070,06,06,46,020,16,07,85,103,49,08,56,118,26*70
$GPGSV,8,3,32,09,24,286,-6,10,61,089,31,11,30,239,00,12,79,311,45*6A
$GPGSV,8,4,32,13,48,127,19,14,44,200,15,15,90,155,52,16,26,139,-5*6E
$GPGSV,8,5,32,17,60,127,30,18,75,100,42,19,74,001,42,20,50,219,20*7D
